lat	lon	title	description	icon	iconSize	iconOffset
38.0457568	23.858473699999998	Message:yolo	Time:17/8/2015,11:55:57 From:	r.png	24,24	0,0
38.0457568	23.858473699999998	Message:yolo	Time:17/8/2015,11:56:11 From:	r.png	24,24	0,0
38.0457568	23.858473699999998	Message:yolo	Time:17/8/2015,11:56:16 From:	r.png	24,24	0,0
37.998480799999996	23.7707521	Message:yo!	Time:17/8/2015,12:09:00 From:	r.png	24,24	0,0
37.990809600000006	23.7450911	Message:fuck this location	Time:17/8/2015,12:43:19 From:	r.png	24,24	0,0
35.338730999999996	25.148249099999997	Message:ooo	Time:17/8/2015,12:55:19 From:	r.png	24,24	0,0
37.990809600000006	23.7450911	Message:o ammar einai vlks	Time:17/8/2015,15:31:10 From:	r.png	24,24	0,0
35.305164399999995	25.071705899999998	Message:test	Time:3/10/2015,13:08:30 From:	r.png	24,24	0,0
35.338730999999996	25.148249099999997	Message:test	Time:5/10/2015,12:15:13 From:	r.png	24,24	0,0
